{"type": "FeatureCollection", "metadata": {"gemeente": "Altena", "slug": "altena", "province": "Noord-Brabant", "generated_at": "2025-10-24T08:15:39.170413Z", "total_points": 72, "providers": ["DHL", "DPD"], "bounds": null, "note": "No pakketpunten data available for this municipality"}, "features": [{"type": "Feature", "geometry": {"type": "Point", "coordinates": [4.884644985198975, 51.71097946166992]}, "properties": {"type": "pakketpunt", "locatieNaam": "DHL Pakketpunt Raamsdonksveer", "straatNaam": "Sterrekroos", "straatNr": "10-A", "latitude": 51.71097946166992, "longitude": 4.884644985198975, "vervoerder": "DHL", "puntType": "parcelShop", "bezettingsgraad": 0}}, {"type": "Feature", "geometry": {"type": "Point", "coordinates": [4.9008327, 51.7270546]}, "properties": {"type": "pakketpunt", "locatieNaam": "Bloemeninterieur Hank", "straatNaam": "Keizer Napoleonweg", "straatNr": "3", "latitude": 51.7270546, "longitude": 4.9008327, "vervoerder": "DHL", "puntType": "parcelShop", "bezettingsgraad": 0}}, {"type": "Feature", "geometry": {"type": "Point", "coordinates": [4.9576701, 51.7288762]}, "properties": {"type": "pakketpunt", "locatieNaam": "Shell Hanex Dussen", "straatNaam": "De Sluis", "straatNr": "4", "latitude": 51.7288762, "longitude": 4.9576701, "vervoerder": "DHL", "puntType": "parcelShop", "bezettingsgraad": 0}}, {"type": "Feature", "geometry": {"type": "Point", "coordinates": [4.960777, 51.728135]}, "properties": {"type": "pakketpunt", "locatieNaam": "Hubo Dussen", "straatNaam": "De Sluis", "straatNr": "1-A", "latitude": 51.728135, "longitude": 4.960777, "vervoerder": "DHL", "puntType": "parcelShop", "bezettingsgraad": 0}}, {"type": "Feature", "geometry": {"type": "Point", "coordinates": [5.088648, 51.735753]}, "properties": {"type": "pakketpunt", "locatieNaam": "Treffers Geschenkenhuis", "straatNaam": "Hoefstraat", "straatNr": "1", "latitude": 51.735753, "longitude": 5.088648, "vervoerder": "DHL", "puntType": "parcelShop", "bezettingsgraad": 0}}, {"type": "Feature", "geometry": {"type": "Point", "coordinates": [5.090348, 51.73801]}, "properties": {"type": "pakketpunt", "locatieNaam": "Pakketautomaat SPAR Van Horssen", "straatNaam": "Hoofdstraat", "straatNr": "37-PS/57", "latitude": 51.73801, "longitude": 5.090348, "vervoerder": "DHL", "puntType": "packStation", "bezettingsgraad": 0}}, {"type": "Feature", "geometry": {"type": "Point", "coordinates": [5.132563874345316, 51.72412425441846]}, "properties": {"type": "pakketpunt", "locatieNaam": "Pakketautomaat PLUS van Wijlen", "straatNaam": "Laagstraat", "straatNr": "3-PS/101", "latitude": 51.72412425441846, "longitude": 5.132563874345316, "vervoerder": "DHL", "puntType": "packStation", "bezettingsgraad": 0}}, {"type": "Feature", "geometry": {"type": "Point", "coordinates": [5.135445, 51.72333]}, "properties": {"type": "pakketpunt", "locatieNaam": "DHL Buurtpunt ViaTim & Thuiswerk", "straatNaam": "Everardus van Gochstraat", "straatNr": "50", "latitude": 51.72333, "longitude": 5.135445, "vervoerder": "DHL", "puntType": "parcelShop", "bezettingsgraad": 0}}, {"type": "Feature", "geometry": {"type": "Point", "coordinates": [5.138371, 51.734889]}, "properties": {"type": "pakketpunt", "locatieNaam": "Berg en Braam", "straatNaam": "Nieuwstraat", "straatNr": "7", "latitude": 51.734889, "longitude": 5.138371, "vervoerder": "DHL", "puntType": "parcelShop", "bezettingsgraad": 0}}, {"type": "Feature", "geometry": {"type": "Point", "coordinates": [5.1295761, 51.7553041]}, "properties": {"type": "pakketpunt", "locatieNaam": "Pakketautomaat terStal De Galerij", "straatNaam": "De Galerij", "straatNr": "9-PS/73", "latitude": 51.7553041, "longitude": 5.1295761, "vervoerder": "DHL", "puntType": "packStation", "bezettingsgraad": 0}}, {"type": "Feature", "geometry": {"type": "Point", "coordinates": [5.129352, 51.755469]}, "properties": {"type": "pakketpunt", "locatieNaam": "Tomboy Kinderboetiek", "straatNaam": "De galerij", "straatNr": "5", "latitude": 51.755469, "longitude": 5.129352, "vervoerder": "DHL", "puntType": "parcelShop", "bezettingsgraad": 0}}, {"type": "Feature", "geometry": {"type": "Point", "coordinates": [5.10337, 51.76609]}, "properties": {"type": "pakketpunt", "locatieNaam": "Pakketautomaat TinQ Groenweg", "straatNaam": "Ambachtweg", "straatNr": "8-DB/38", "latitude": 51.76609, "longitude": 5.10337, "vervoerder": "DHL", "puntType": "packStation", "bezettingsgraad": 0}}, {"type": "Feature", "geometry": {"type": "Point", "coordinates": [5.10144, 51.775274]}, "properties": {"type": "pakketpunt", "locatieNaam": "Electro World Veen", "straatNaam": "Bagijnhof", "straatNr": "19", "latitude": 51.775274, "longitude": 5.10144, "vervoerder": "DHL", "puntType": "parcelShop", "bezettingsgraad": 0}}, {"type": "Feature", "geometry": {"type": "Point", "coordinates": [5.0579132, 51.7809084]}, "properties": {"type": "pakketpunt", "locatieNaam": "DHL Buurtpunt ViaTim & Kennedylaan", "straatNaam": "Kennedylaan", "straatNr": "42", "latitude": 51.7809084, "longitude": 5.0579132, "vervoerder": "DHL", "puntType": "parcelShop", "bezettingsgraad": 0}}, {"type": "Feature", "geometry": {"type": "Point", "coordinates": [5.1085848, 51.7782813]}, "properties": {"type": "pakketpunt", "locatieNaam": "DHL Winkelpunt ViaTim & Schrijver", "straatNaam": "Witboomstraat", "straatNr": "27", "latitude": 51.7782813, "longitude": 5.1085848, "vervoerder": "DHL", "puntType": "parcelShop", "bezettingsgraad": 0}}, {"type": "Feature", "geometry": {"type": "Point", "coordinates": [4.6843854, 51.8262243]}, "properties": {"type": "pakketpunt", "locatieNaam": "Pakketautomaat terStal Papendrecht", "straatNaam": "Meentpassage", "straatNr": "31-PS/73", "latitude": 51.8262243, "longitude": 4.6843854, "vervoerder": "DHL", "puntType": "packStation", "bezettingsgraad": 0}}, {"type": "Feature", "geometry": {"type": "Point", "coordinates": [4.6848423, 51.8259379]}, "properties": {"type": "pakketpunt", "locatieNaam": "Intertoys Papendrecht", "straatNaam": "Meentpassage", "straatNr": "13", "latitude": 51.8259379, "longitude": 4.6848423, "vervoerder": "DHL", "puntType": "parcelShop", "bezettingsgraad": 0}}, {"type": "Feature", "geometry": {"type": "Point", "coordinates": [4.685084, 51.813782]}, "properties": {"type": "pakketpunt", "locatieNaam": "Pakketautomaat Esso Oranjelaan", "straatNaam": "Oranjelaan", "straatNr": "76-PS/75", "latitude": 51.813782, "longitude": 4.685084, "vervoerder": "DHL", "puntType": "packStation", "bezettingsgraad": 0}}, {"type": "Feature", "geometry": {"type": "Point", "coordinates": [4.6843416420913355, 51.810968061458034]}, "properties": {"type": "pakketpunt", "locatieNaam": "Pakketautomaat PLUS Vogelplein", "straatNaam": "Vogelplein", "straatNr": "18-PS/149", "latitude": 51.810968061458034, "longitude": 4.6843416420913355, "vervoerder": "DHL", "puntType": "packStation", "bezettingsgraad": 0}}, {"type": "Feature", "geometry": {"type": "Point", "coordinates": [4.6794234318916805, 51.80031610996181]}, "properties": {"type": "pakketpunt", "locatieNaam": "Pakketautomaat PLUS Valkzicht", "straatNaam": "Professor Waterinklaan", "straatNr": "45-PS/149", "latitude": 51.80031610996181, "longitude": 4.6794234318916805, "vervoerder": "DHL", "puntType": "packStation", "bezettingsgraad": 0}}, {"type": "Feature", "geometry": {"type": "Point", "coordinates": [4.6824998, 51.8026099]}, "properties": {"type": "pakketpunt", "locatieNaam": "Cartridge Service", "straatNaam": "Heysterbachstraat", "straatNr": "25", "latitude": 51.8026099, "longitude": 4.6824998, "vervoerder": "DHL", "puntType": "parcelShop", "bezettingsgraad": 0}}, {"type": "Feature", "geometry": {"type": "Point", "coordinates": [4.8332286, 51.8270157]}, "properties": {"type": "pakketpunt", "locatieNaam": "Pakketautomaat terStal Hardinxveld", "straatNaam": "Den Bogerd", "straatNr": "3-PS/73", "latitude": 51.8270157, "longitude": 4.8332286, "vervoerder": "DHL", "puntType": "packStation", "bezettingsgraad": 0}}, {"type": "Feature", "geometry": {"type": "Point", "coordinates": [4.831026, 51.826335]}, "properties": {"type": "pakketpunt", "locatieNaam": "Top 1 Toys Hardinxveld", "straatNaam": "Buitendams", "straatNr": "69", "latitude": 51.826335, "longitude": 4.831026, "vervoerder": "DHL", "puntType": "parcelShop", "bezettingsgraad": 0}}, {"type": "Feature", "geometry": {"type": "Point", "coordinates": [4.8197102, 51.8251741]}, "properties": {"type": "pakketpunt", "locatieNaam": "DHL Buurtpunt ViaTim & Fabrie", "straatNaam": "Buitendams", "straatNr": "295", "latitude": 51.8251741, "longitude": 4.8197102, "vervoerder": "DHL", "puntType": "parcelShop", "bezettingsgraad": 0}}, {"type": "Feature", "geometry": {"type": "Point", "coordinates": [4.802204184511857, 51.82706894007359]}, "properties": {"type": "pakketpunt", "locatieNaam": "Pakketautomaat Praxis Sliedrecht", "straatNaam": "Prisma", "straatNr": "101-PS/88", "latitude": 51.82706894007359, "longitude": 4.802204184511857, "vervoerder": "DHL", "puntType": "packStation", "bezettingsgraad": 0}}, {"type": "Feature", "geometry": {"type": "Point", "coordinates": [4.8829468, 51.8220292]}, "properties": {"type": "pakketpunt", "locatieNaam": "DHL Buurtpunt ViaTim & Anna", "straatNaam": "De Buurt", "straatNr": "8", "latitude": 51.8220292, "longitude": 4.8829468, "vervoerder": "DHL", "puntType": "parcelShop", "bezettingsgraad": 0}}, {"type": "Feature", "geometry": {"type": "Point", "coordinates": [4.8857596, 51.8234345]}, "properties": {"type": "pakketpunt", "locatieNaam": "Boekhandel Ritmeester", "straatNaam": "Rembrandtstraat", "straatNr": "29", "latitude": 51.8234345, "longitude": 4.8857596, "vervoerder": "DHL", "puntType": "parcelShop", "bezettingsgraad": 0}}, {"type": "Feature", "geometry": {"type": "Point", "coordinates": [4.892246, 51.813754]}, "properties": {"type": "pakketpunt", "locatieNaam": "CheapFixIT", "straatNaam": "Hoogstraat", "straatNr": "84", "latitude": 51.813754, "longitude": 4.892246, "vervoerder": "DHL", "puntType": "parcelShop", "bezettingsgraad": 0}}, {"type": "Feature", "geometry": {"type": "Point", "coordinates": [4.8926262, 51.8137285]}, "properties": {"type": "pakketpunt", "locatieNaam": "Intertoys Werkendam", "straatNaam": "Hoogstraat", "straatNr": "77", "latitude": 51.8137285, "longitude": 4.8926262, "vervoerder": "DHL", "puntType": "parcelShop", "bezettingsgraad": 0}}, {"type": "Feature", "geometry": {"type": "Point", "coordinates": [4.8937272, 51.8139107]}, "properties": {"type": "pakketpunt", "locatieNaam": "Pakketautomaat terStal Werkendam", "straatNaam": "Hoogstraat", "straatNr": "57-PS/73", "latitude": 51.8139107, "longitude": 4.8937272, "vervoerder": "DHL", "puntType": "packStation", "bezettingsgraad": 0}}, {"type": "Feature", "geometry": {"type": "Point", "coordinates": [4.8939882, 51.8140546]}, "properties": {"type": "pakketpunt", "locatieNaam": "Shoeby Werkendam", "straatNaam": "Hoogstraat", "straatNr": "48", "latitude": 51.8140546, "longitude": 4.8939882, "vervoerder": "DHL", "puntType": "parcelShop", "bezettingsgraad": 0}}, {"type": "Feature", "geometry": {"type": "Point", "coordinates": [4.8908224, 51.8094199]}, "properties": {"type": "pakketpunt", "locatieNaam": "Pakketautomaat AH Werkendam", "straatNaam": "Sigmondstraat", "straatNr": "52-PS/75", "latitude": 51.8094199, "longitude": 4.8908224, "vervoerder": "DHL", "puntType": "packStation", "bezettingsgraad": 0}}, {"type": "Feature", "geometry": {"type": "Point", "coordinates": [4.7788813742763825, 51.81879907479345]}, "properties": {"type": "pakketpunt", "locatieNaam": "Pakketautomaat Get Healthy", "straatNaam": "Krommestoep", "straatNr": "1-PS/87", "latitude": 51.81879907479345, "longitude": 4.7788813742763825, "vervoerder": "DHL", "puntType": "packStation", "bezettingsgraad": 0}}, {"type": "Feature", "geometry": {"type": "Point", "coordinates": [4.7773641, 51.8216588]}, "properties": {"type": "pakketpunt", "locatieNaam": "Multivlaai Jamin Sliedrecht", "straatNaam": "Rembrandtlaan", "straatNr": "77", "latitude": 51.8216588, "longitude": 4.7773641, "vervoerder": "DHL", "puntType": "parcelShop", "bezettingsgraad": 0}}, {"type": "Feature", "geometry": {"type": "Point", "coordinates": [4.888897, 51.803427]}, "properties": {"type": "pakketpunt", "locatieNaam": "Auto en Bandenservice Verbaan", "straatNaam": "Bolstrastraat", "straatNr": "15", "latitude": 51.803427, "longitude": 4.888897, "vervoerder": "DHL", "puntType": "parcelShop", "bezettingsgraad": 0}}, {"type": "Feature", "geometry": {"type": "Point", "coordinates": [4.773802, 51.8204559]}, "properties": {"type": "pakketpunt", "locatieNaam": "Pakketautomaat terStal Sliedrecht", "straatNaam": "kerkbuurt", "straatNr": "59-PS/73", "latitude": 51.8204559, "longitude": 4.773802, "vervoerder": "DHL", "puntType": "packStation", "bezettingsgraad": 0}}, {"type": "Feature", "geometry": {"type": "Point", "coordinates": [4.773262, 51.8210268]}, "properties": {"type": "pakketpunt", "locatieNaam": "Shoeby Sliedrecht", "straatNaam": "Kerkbuurt", "straatNr": "93-A", "latitude": 51.8210268, "longitude": 4.773262, "vervoerder": "DHL", "puntType": "parcelShop", "bezettingsgraad": 0}}, {"type": "Feature", "geometry": {"type": "Point", "coordinates": [4.9457773, 51.8122542]}, "properties": {"type": "pakketpunt", "locatieNaam": "Kadofabriek N tikkie verderop", "straatNaam": "Nieuwe Es", "straatNr": "1", "latitude": 51.8122542, "longitude": 4.9457773, "vervoerder": "DHL", "puntType": "parcelShop", "bezettingsgraad": 0}}, {"type": "Feature", "geometry": {"type": "Point", "coordinates": [4.9246471, 51.7766347]}, "properties": {"type": "pakketpunt", "locatieNaam": "DHL Buurtpunt ViaTim & Pleuny", "straatNaam": "Snijderstraat", "straatNr": "9", "latitude": 51.7766347, "longitude": 4.9246471, "vervoerder": "DHL", "puntType": "parcelShop", "bezettingsgraad": 0}}, {"type": "Feature", "geometry": {"type": "Point", "coordinates": [4.72577, 51.798014]}, "properties": {"type": "pakketpunt", "locatieNaam": "Profile Vietsch", "straatNaam": "Pearl Buck-Erf", "straatNr": "77-A", "latitude": 51.798014, "longitude": 4.72577, "vervoerder": "DHL", "puntType": "parcelShop", "bezettingsgraad": 0}}, {"type": "Feature", "geometry": {"type": "Point", "coordinates": [4.7252855, 51.7983787]}, "properties": {"type": "pakketpunt", "locatieNaam": "Tabac & Gifts", "straatNaam": "Pearl Buck Erf", "straatNr": "214", "latitude": 51.7983787, "longitude": 4.7252855, "vervoerder": "DHL", "puntType": "parcelShop", "bezettingsgraad": 0}}, {"type": "Feature", "geometry": {"type": "Point", "coordinates": [4.709522651245398, 51.80081940656669]}, "properties": {"type": "pakketpunt", "locatieNaam": "Pakketautomaat Karwei Dordrecht", "straatNaam": "Visserijdijk Beneden", "straatNr": "60-PS/88", "latitude": 51.80081940656669, "longitude": 4.709522651245398, "vervoerder": "DHL", "puntType": "packStation", "bezettingsgraad": 0}}, {"type": "Feature", "geometry": {"type": "Point", "coordinates": [4.7014371, 51.8172092]}, "properties": {"type": "pakketpunt", "locatieNaam": "Royal Bike Fiets & Scooter", "straatNaam": "Merwedestraat", "straatNr": "247", "latitude": 51.8172092, "longitude": 4.7014371, "vervoerder": "DHL", "puntType": "parcelShop", "bezettingsgraad": 0}}, {"type": "Feature", "geometry": {"type": "Point", "coordinates": [5.091641, 51.815947]}, "properties": {"type": "pakketpunt", "locatieNaam": "Tankstation Autofood Bert de Vries", "straatNaam": "Zalmstraat", "straatNr": "2", "latitude": 51.815947, "longitude": 5.091641, "vervoerder": "DHL", "puntType": "parcelShop", "bezettingsgraad": 0}}, {"type": "Feature", "geometry": {"type": "Point", "coordinates": [5.130509, 51.827771]}, "properties": {"type": "pakketpunt", "locatieNaam": "Drogisterij Jetty", "straatNaam": "Zworrelstraat", "straatNr": "71", "latitude": 51.827771, "longitude": 5.130509, "vervoerder": "DHL", "puntType": "parcelShop", "bezettingsgraad": 0}}, {"type": "Feature", "geometry": {"type": "Point", "coordinates": [5.0830116, 51.7889556]}, "properties": {"type": "pakketpunt", "locatieNaam": "Bakker en De Boekenplank", "straatNaam": "Egter van Wissekerkeweg", "straatNr": "5", "latitude": 51.7889556, "longitude": 5.0830116, "vervoerder": "DHL", "puntType": "parcelShop", "bezettingsgraad": 0}}, {"type": "Feature", "geometry": {"type": "Point", "coordinates": [4.9969109, 51.8082964]}, "properties": {"type": "pakketpunt", "locatieNaam": "Lukoil Velthuis Woudrichem", "straatNaam": "Almkerkseweg", "straatNr": "3-C", "latitude": 51.8082964, "longitude": 4.9969109, "vervoerder": "DHL", "puntType": "parcelShop", "bezettingsgraad": 0}}, {"type": "Feature", "geometry": {"type": "Point", "coordinates": [5.091641, 51.815948]}, "properties": {"type": "pakketpunt", "locatieNaam": "Autofood Bert De Vries", "straatNaam": "ZALMSTRAAT", "straatNr": "2", "latitude": 51.815948, "longitude": 5.091641, "vervoerder": "DPD", "puntType": "pickup_point", "bezettingsgraad": 0}}, {"type": "Feature", "geometry": {"type": "Point", "coordinates": [5.138381, 51.734898]}, "properties": {"type": "pakketpunt", "locatieNaam": "Berg & Braam", "straatNaam": "NIEUWSTRAAT", "straatNr": "7", "latitude": 51.734898, "longitude": 5.138381, "vervoerder": "DPD", "puntType": "pickup_point", "bezettingsgraad": 0}}, {"type": "Feature", "geometry": {"type": "Point", "coordinates": [4.892501, 51.81382]}, "properties": {"type": "pakketpunt", "locatieNaam": "Boutique Le Defi", "straatNaam": "HOOGSTRAAT", "straatNr": "81A", "latitude": 51.81382, "longitude": 4.892501, "vervoerder": "DPD", "puntType": "pickup_point", "bezettingsgraad": 0}}, {"type": "Feature", "geometry": {"type": "Point", "coordinates": [4.9599338, 51.7282145]}, "properties": {"type": "pakketpunt", "locatieNaam": "Hubo Dussen", "straatNaam": "DE SLUIS", "straatNr": "1A", "latitude": 51.7282145, "longitude": 4.9599338, "vervoerder": "DPD", "puntType": "pickup_point", "bezettingsgraad": 0}}, {"type": "Feature", "geometry": {"type": "Point", "coordinates": [5.088661, 51.735745]}, "properties": {"type": "pakketpunt", "locatieNaam": "Treffers Geschenkenhuis", "straatNaam": "HOEFSTRAAT", "straatNr": "1", "latitude": 51.735745, "longitude": 5.088661, "vervoerder": "DPD", "puntType": "pickup_point", "bezettingsgraad": 0}}, {"type": "Feature", "geometry": {"type": "Point", "coordinates": [5.0830116, 51.7889556]}, "properties": {"type": "pakketpunt", "locatieNaam": "De Boekenplank", "straatNaam": "EGTER VAN WISSEKERKEWEG", "straatNr": "5", "latitude": 51.7889556, "longitude": 5.0830116, "vervoerder": "DPD", "puntType": "pickup_point", "bezettingsgraad": 0}}, {"type": "Feature", "geometry": {"type": "Point", "coordinates": [5.1085848, 51.7782813]}, "properties": {"type": "pakketpunt", "locatieNaam": "'t Schrijvertje", "straatNaam": "WITBOOMSTRAAT", "straatNr": "27", "latitude": 51.7782813, "longitude": 5.1085848, "vervoerder": "DPD", "puntType": "pickup_point", "bezettingsgraad": 0}}, {"type": "Feature", "geometry": {"type": "Point", "coordinates": [5.1014152, 51.7752729]}, "properties": {"type": "pakketpunt", "locatieNaam": "Electro World Veen", "straatNaam": "BAGIJNHOF", "straatNr": "19", "latitude": 51.7752729, "longitude": 5.1014152, "vervoerder": "DPD", "puntType": "pickup_point", "bezettingsgraad": 0}}, {"type": "Feature", "geometry": {"type": "Point", "coordinates": [4.7014371, 51.8172092]}, "properties": {"type": "pakketpunt", "locatieNaam": "Royal Bike", "straatNaam": "MERWEDESTRAAT", "straatNr": "247", "latitude": 51.8172092, "longitude": 4.7014371, "vervoerder": "DPD", "puntType": "pickup_point", "bezettingsgraad": 0}}, {"type": "Feature", "geometry": {"type": "Point", "coordinates": [4.8886714, 51.8033415]}, "properties": {"type": "pakketpunt", "locatieNaam": "Auto- & Bandenservice Verbaan", "straatNaam": "BOLSTRASTRAAT", "straatNr": "15", "latitude": 51.8033415, "longitude": 4.8886714, "vervoerder": "DPD", "puntType": "pickup_point", "bezettingsgraad": 0}}, {"type": "Feature", "geometry": {"type": "Point", "coordinates": [5.0579132, 51.7809084]}, "properties": {"type": "pakketpunt", "locatieNaam": "ViaTim & Kennedylaan 42", "straatNaam": "KENNEDYLAAN", "straatNr": "42", "latitude": 51.7809084, "longitude": 5.0579132, "vervoerder": "DPD", "puntType": "pickup_point", "bezettingsgraad": 0}}, {"type": "Feature", "geometry": {"type": "Point", "coordinates": [4.8810157, 51.7116252]}, "properties": {"type": "pakketpunt", "locatieNaam": "FPE Seals BV", "straatNaam": "ELFTWEG", "straatNr": "38", "latitude": 51.7116252, "longitude": 4.8810157, "vervoerder": "DPD", "puntType": "pickup_point", "bezettingsgraad": 0}}, {"type": "Feature", "geometry": {"type": "Point", "coordinates": [4.9011319, 51.7273888]}, "properties": {"type": "pakketpunt", "locatieNaam": "Bloemeninterieur Hank", "straatNaam": "KEIZER NAPOLEONWEG", "straatNr": "3", "latitude": 51.7273888, "longitude": 4.9011319, "vervoerder": "DPD", "puntType": "pickup_point", "bezettingsgraad": 0}}, {"type": "Feature", "geometry": {"type": "Point", "coordinates": [4.67656876, 51.78467704]}, "properties": {"type": "pakketpunt", "locatieNaam": "Pakketautomaat - De Buren - Winkelc", "straatNaam": "P.A. DE KOK-PLEIN", "straatNr": "173", "latitude": 51.78467704, "longitude": 4.67656876, "vervoerder": "DPD", "puntType": "dpd_box", "bezettingsgraad": 0}}, {"type": "Feature", "geometry": {"type": "Point", "coordinates": [4.9511172, 51.768995]}, "properties": {"type": "pakketpunt", "locatieNaam": "ViaTim & Patricia", "straatNaam": "MIDDENVELD", "straatNr": "3", "latitude": 51.768995, "longitude": 4.9511172, "vervoerder": "DPD", "puntType": "pickup_point", "bezettingsgraad": 0}}, {"type": "Feature", "geometry": {"type": "Point", "coordinates": [4.9246471, 51.7766347]}, "properties": {"type": "pakketpunt", "locatieNaam": "ViaTim & Pleuny", "straatNaam": "SNIJDERSTRAAT", "straatNr": "9", "latitude": 51.7766347, "longitude": 4.9246471, "vervoerder": "DPD", "puntType": "pickup_point", "bezettingsgraad": 0}}, {"type": "Feature", "geometry": {"type": "Point", "coordinates": [4.7252855, 51.7983787]}, "properties": {"type": "pakketpunt", "locatieNaam": "Tabac & Gift Erasmus", "straatNaam": "PEARL BUCK-ERF", "straatNr": "214", "latitude": 51.7983787, "longitude": 4.7252855, "vervoerder": "DPD", "puntType": "pickup_point", "bezettingsgraad": 0}}, {"type": "Feature", "geometry": {"type": "Point", "coordinates": [4.6829194, 51.8258741]}, "properties": {"type": "pakketpunt", "locatieNaam": "Dierenspeciaalzaak De Lange", "straatNaam": "ACHTEROM", "straatNr": "6", "latitude": 51.8258741, "longitude": 4.6829194, "vervoerder": "DPD", "puntType": "pickup_point", "bezettingsgraad": 0}}, {"type": "Feature", "geometry": {"type": "Point", "coordinates": [5.1035672, 51.7660589]}, "properties": {"type": "pakketpunt", "locatieNaam": "Pakketautomaat - De Buren - TinQ Gr", "straatNaam": "GROENEWEG", "straatNr": "8", "latitude": 51.7660589, "longitude": 5.1035672, "vervoerder": "DPD", "puntType": "dpd_box", "bezettingsgraad": 0}}, {"type": "Feature", "geometry": {"type": "Point", "coordinates": [4.7753821, 51.8191243]}, "properties": {"type": "pakketpunt", "locatieNaam": "De Hoop Brics", "straatNaam": "KERKBUURT", "straatNr": "25", "latitude": 51.8191243, "longitude": 4.7753821, "vervoerder": "DPD", "puntType": "pickup_point", "bezettingsgraad": 0}}, {"type": "Feature", "geometry": {"type": "Point", "coordinates": [4.6824998, 51.8026099]}, "properties": {"type": "pakketpunt", "locatieNaam": "Cartridge Service", "straatNaam": "HEYSTERBACHSTRAAT", "straatNr": "25", "latitude": 51.8026099, "longitude": 4.6824998, "vervoerder": "DPD", "puntType": "pickup_point", "bezettingsgraad": 0}}, {"type": "Feature", "geometry": {"type": "Point", "coordinates": [4.9001322, 51.7357155]}, "properties": {"type": "pakketpunt", "locatieNaam": "Malle Pietje", "straatNaam": "KERKSTRAAT", "straatNr": "45", "latitude": 51.7357155, "longitude": 4.9001322, "vervoerder": "DPD", "puntType": "pickup_point", "bezettingsgraad": 0}}, {"type": "Feature", "geometry": {"type": "Point", "coordinates": [5.1293521, 51.7554688]}, "properties": {"type": "pakketpunt", "locatieNaam": "Tomboy", "straatNaam": "DE GALERIJ", "straatNr": "5", "latitude": 51.7554688, "longitude": 5.1293521, "vervoerder": "DPD", "puntType": "pickup_point", "bezettingsgraad": 0}}, {"type": "Feature", "geometry": {"type": "Point", "coordinates": [4.8908492, 51.8093334]}, "properties": {"type": "pakketpunt", "locatieNaam": "DPD Pakketautomaat - Albert Heijn v", "straatNaam": "SIGMONDSTRAAT", "straatNr": "52", "latitude": 51.8093334, "longitude": 4.8908492, "vervoerder": "DPD", "puntType": "dpd_box", "bezettingsgraad": 0}}, {"type": "Feature", "geometry": {"type": "Point", "coordinates": [4.9583578, 51.812089]}, "properties": {"type": "pakketpunt", "locatieNaam": "DPD Pakketautomaat - Kadookuz & So", "straatNaam": "DE HOOGJENS", "straatNr": "1", "latitude": 51.812089, "longitude": 4.9583578, "vervoerder": "DPD", "puntType": "dpd_box", "bezettingsgraad": 0}}]}