{"type": "FeatureCollection", "metadata": {"gemeente": "Castricum", "slug": "castricum", "province": "Noord-Holland", "generated_at": "2025-10-24T08:15:39.170757Z", "total_points": 7, "providers": ["DHL"], "bounds": null, "note": "No pakketpunten data available for this municipality"}, "features": [{"type": "Feature", "geometry": {"type": "Point", "coordinates": [4.6637016, 52.5494751]}, "properties": {"type": "pakketpunt", "locatieNaam": "Hip en Design", "straatNaam": "Torenstraat", "straatNr": "40-A", "latitude": 52.5494751, "longitude": 4.6637016, "vervoerder": "DHL", "puntType": "parcelShop", "bezettingsgraad": 0}}, {"type": "Feature", "geometry": {"type": "Point", "coordinates": [4.6733028, 52.5504783]}, "properties": {"type": "pakketpunt", "locatieNaam": "Pakketautomaat WKC Geesterduin", "straatNaam": "Geesterduin", "straatNr": "36-DB/186", "latitude": 52.5504783, "longitude": 4.6733028, "vervoerder": "DHL", "puntType": "packStation", "bezettingsgraad": 0}}, {"type": "Feature", "geometry": {"type": "Point", "coordinates": [4.6738271, 52.5505972]}, "properties": {"type": "pakketpunt", "locatieNaam": "HOPs Taim Markt", "straatNaam": "Geesterduin", "straatNr": "14", "latitude": 52.5505972, "longitude": 4.6738271, "vervoerder": "DHL", "puntType": "parcelShop", "bezettingsgraad": 0}}, {"type": "Feature", "geometry": {"type": "Point", "coordinates": [4.6742153, 52.5515095]}, "properties": {"type": "pakketpunt", "locatieNaam": "Pakketautomaat terStal Castricum", "straatNaam": "Geesterduin", "straatNr": "1-PS/73", "latitude": 52.5515095, "longitude": 4.6742153, "vervoerder": "DHL", "puntType": "packStation", "bezettingsgraad": 0}}, {"type": "Feature", "geometry": {"type": "Point", "coordinates": [4.69053, 52.562006]}, "properties": {"type": "pakketpunt", "locatieNaam": "Pakketautomaat Argos Limmen", "straatNaam": "Rijksweg", "straatNr": "2-PS/55", "latitude": 52.562006, "longitude": 4.69053, "vervoerder": "DHL", "puntType": "packStation", "bezettingsgraad": 0}}, {"type": "Feature", "geometry": {"type": "Point", "coordinates": [4.735833, 52.56163]}, "properties": {"type": "pakketpunt", "locatieNaam": "Marskramer Velzeboer", "straatNaam": "Julianaweg", "straatNr": "40", "latitude": 52.56163, "longitude": 4.735833, "vervoerder": "DHL", "puntType": "parcelShop", "bezettingsgraad": 0}}, {"type": "Feature", "geometry": {"type": "Point", "coordinates": [4.68875, 52.59125]}, "properties": {"type": "pakketpunt", "locatieNaam": "Pakketautomaat Tankstation Total", "straatNaam": "Vennewatersweg", "straatNr": "2-PS/75", "latitude": 52.59125, "longitude": 4.68875, "vervoerder": "DHL", "puntType": "packStation", "bezettingsgraad": 0}}]}